[
  {
    "id": "5e263ae4-d58b-4c8f-bdd7-f9734f4f4e5b",
    "city": "Jed ali",
    "type": "Paint store",
    "coordinates": {
      "lat": "26.178696",
      "lng": "50.552151"
    },
    "location": "Al Aradi",
    "address": "Shop 513  , Rood 9 , Block 979, Jed ali, Kingdom of Bahrain",
    "phones": [
      "+973 17685674"
    ],
    "fax": null,
    "emails": []
  },
  {
    "id": "f9e8c819-03b6-4c75-b75a-9099239cff49",
    "city": "Al-Eker",
    "type": "Paint store",
    "coordinates": {
      "lat": "26.138895",
      "lng": "50.610392"
    },
    "location": "AL BASHA ",
    "address": "Shop 966A , Rood 31 , Block 979, Al-Eker, Kingdom of Bahrain",
    "phones": [
      "+973 17704641"
    ],
    "fax": null,
    "emails": []
  },
  {
    "id": "aa82255f-b02a-4446-8060-63fddddeb3dc",
    "city": "Sitra",
    "type": "Paint store",
    "coordinates": null,
    "location": "AL BASHA Home",
    "address": "Shop 133 , Rood 2 , Block 606, Sitra, Kingdom of Bahrain",
    "phones": [
      "+973 17704604"
    ],
    "fax": null,
    "emails": []
  },
  {
    "id": "2d9ac969-c6fd-45f9-b764-5db5b96e0042",
    "city": "Budaiya",
    "type": "Paint store",
    "coordinates": {
      "lat": "26.213186",
      "lng": "50.449950"
    },
    "location": "Budaiya",
    "address": "Shop 2294  , Rood 85 , Block 552, Budaiya, Kingdom of Bahrain",
    "phones": [
      "+973 17003959"
    ],
    "fax": null,
    "emails": []
  },
  {
    "id": "ab1d0b91-2ab4-464a-9624-cc6ea7f4785f",
    "city": "Manma",
    "type": "Paint store",
    "coordinates": {
      "lat": "26.227763",
      "lng": "50.570450"
    },
    "location": "Al-Karar",
    "address": "Shop 63  , Rood 349 , Block 303, Manma, Kindom of Bahrain",
    "phones": [
      "+973 17232282"
    ],
    "fax": null,
    "emails": []
  },
  {
    "id": "a59d75c3-7d33-44f8-854b-d8a0b777df63",
    "city": "Malkiya",
    "type": "Paint store",
    "coordinates": {
      "lat": "26.096977",
      "lng": "50.490204"
    },
    "location": "Al Reef Paints",
    "address": "Shop 1034 , Rood 3201 , Block2689, Malkiya, Kindom of Bahrain",
    "phones": [
      "+973 33833840"
    ],
    "fax": null,
    "emails": []
  },
  {
    "id": "9e6b0775-5ba9-4b0d-b949-f69c61ccbfef",
    "city": "ZINJ",
    "type": "Paint store",
    "coordinates": {
      "lat": "26.211747",
      "lng": "50.575701"
    },
    "location": "Aspire Trading Company",
    "address": "Shop 85 , Rood 3201 , Block332, ZINJ, Kindom of Bahrain",
    "phones": [
      "+973 13639115"
    ],
    "fax": null,
    "emails": []
  },
  {
    "id": "1ddeba5a-9ef7-4e43-9250-5ee7f07d3017",
    "city": "Salmabad",
    "type": "Paint store",
    "coordinates": {
      "lat": "26.170806",
      "lng": " 50.520306"
    },
    "location": "Barcelona Trading",
    "address": "Shop 2822  , Rood 3471 , Block 1034, Salmabad, Kingdom of Bahrain",
    "phones": [
      "+973 33449913"
    ],
    "fax": null,
    "emails": []
  },
  {
    "id": "602e45c8-71dc-4d7c-b03c-60816ec37813",
    "city": "Hamad Town",
    "type": "Paint store",
    "coordinates": {
      "lat": "26.140794",
      "lng": "50.497432"
    },
    "location": "Dream House",
    "address": "Shop 105  , Rood 316 , Block 303, Hamad Town, Kingdom of Bahrain",
    "phones": [
      "+973 17415170"
    ],
    "fax": null,
    "emails": []
  },
  {
    "id": "1db519c3-e4e1-430f-9c84-95a475afd4fd",
    "city": "Hamad Town",
    "type": "Paint store",
    "coordinates": {
      "lat": "26.140690",
      "lng": "50.493649"
    },
    "location": "Google colours",
    "address": "Shop 405 , Rood306  , Block 1203, Hamad Town, Kingdom of Bahrain",
    "phones": [
      "+973 33608748"
    ],
    "fax": null,
    "emails": []
  },
  {
    "id": "247c5c43-6d3d-445a-906a-d2d9d6cd67eb",
    "city": "Manama-Mina Salman",
    "type": "Showroom",
    "coordinates": {
      "lat": "26.200435",
      "lng": "50.598724"
    },
    "location": "Hempel Paints Showroom",
    "address": "Building 314, Block 343, Road 4304, Mina Salman, Manama, Kingdom of Bahrain",
    "phones": [
      "+973 17728668"
    ],
    "fax": null,
    "emails": []
  },
  {
    "id": "d7772054-5018-4f49-9615-3fa7fb1156ff",
    "city": "Jurdab",
    "type": "Paint store",
    "coordinates": {
      "lat": "26.1687052",
      "lng": "50.5668551"
    },
    "location": "Karaz Colours",
    "address": "Shop 789  , Rood 77 , Block 729, Jurdab, Kingdom of Bahrain",
    "phones": [
      "+973 17000056"
    ],
    "fax": [
      "+973 17777206"
    ],
    "emails": [
      "karaz@colours.com"
    ]
  },
  {
    "id": "a9503aa9-f824-49db-be55-5e58b74682a7",
    "city": "East Riffa",
    "type": "Paint store",
    "coordinates": {
      "lat": "26.115558",
      "lng": "50.573266"
    },
    "location": "Karaz Colours",
    "address": "Shop 367  , Rood 83 , Block 907, East Riffa, Kingdom of Bahrain",
    "phones": [
      "+973 17777206"
    ],
    "fax": [
      "+973 17777206"
    ],
    "emails": [
      "karaz@colours.com"
    ]
  },
  {
    "id": "eef0f85c-26cf-4dfc-b71b-251d9cde7057",
    "city": "Salmabad",
    "type": "Paint store",
    "coordinates": {
      "lat": "26.182519",
      "lng": "50.536573"
    },
    "location": "Manazel",
    "address": "Shop 174  , Rood 408 , Block 704, Salmabad, Kingdom of Bahrain",
    "phones": [
      "+973 17786727"
    ],
    "fax": null,
    "emails": []
  },
  {
    "id": "fdfec5aa-6f53-4caa-bb57-6d257ffd2872",
    "city": "Budaiya / Diraz",
    "type": "Paint store",
    "coordinates": null,
    "location": "Budaiya / Diraz",
    "address": "Shop 1885  , Rood 4063 , Block 540, Budaiya / Diraz, Kingdom of Bahrain",
    "phones": [
      "+973 36555559"
    ],
    "fax": null,
    "emails": []
  },
  {
    "id": "6d46f9f6-fa78-4b7b-ae2d-044b3b978850",
    "city": "Muharraq",
    "type": "Paint store",
    "coordinates": null,
    "location": "Naseem Colours",
    "address": "Shop 0900G , Rood003 , Block210, Muharraq, Kingdom of Bahrain",
    "phones": [
      "+973 17344024"
    ],
    "fax": null,
    "emails": []
  },
  {
    "id": "8c70d357-59cd-49de-be75-71aadbc90ce4",
    "city": "Galali",
    "type": "Paint store",
    "coordinates": {
      "lat": "26.274363",
      "lng": "50.644086"
    },
    "location": "Paint House ",
    "address": "Shop 95 , Rood626 , Block210, Galali, Kingdom of Bahrain",
    "phones": [
      "+973 17210153"
    ],
    "fax": null,
    "emails": []
  },
  {
    "id": "63859ca8-c81e-489b-93cc-72b04d5b7f96",
    "city": "Khamis",
    "type": "Paint store",
    "coordinates": null,
    "location": "Sola Shopping Center ",
    "address": "Shop 458  , Rood 487 , Block 84, Khamis, Kingdom of Bahrain",
    "phones": [
      "+973 17402706"
    ],
    "fax": null,
    "emails": []
  },
  {
    "id": "70ecc5ca-4b30-46cb-8265-e5c10c5b2114",
    "city": "Jidhafs",
    "type": "Paint store",
    "coordinates": {
      "lat": "26.224889",
      "lng": "50.543831"
    },
    "location": "Solideer Construction",
    "address": "Shop 15  , Rood 6 , Block 406, Jidhafs, Kingdom of Bahrain,  ",
    "phones": [
      "+973 17555154"
    ],
    "fax": null,
    "emails": []
  },
  {
    "id": "8b951e35-ba46-46dd-9d41-deeefdcae65c",
    "city": "Dar Kulaib ",
    "type": "Paint store",
    "coordinates": null,
    "location": "Sufeen Building Materials",
    "address": "Shop 422 , Rood 84 , Block407, Dar Kulaib",
    "phones": [
      "+973 17414140"
    ],
    "fax": null,
    "emails": []
  },
  {
    "id": "e7ec3df3-1a6a-48af-af44-744b95ccbf18",
    "city": "Tubli",
    "type": "Paint store",
    "coordinates": {
      "lat": "26.18859",
      "lng": "50.557108"
    },
    "location": "Top Bonanza",
    "address": "Shop 99  , Rood 11 , Block 711, Tubli, Kingdom of Bahrain",
    "phones": [
      "+973 17784822"
    ],
    "fax": null,
    "emails": []
  },
  {
    "id": "2af1c712-1200-4ca0-8df2-1e28c8a6b68b",
    "city": "Jaleeb",
    "type": "Paint store",
    "coordinates": {
      "lat": "29.2587657",
      "lng": "47.9396481"
    },
    "location": "Al Ahmar shop",
    "address": "Jaleeb al shuyoukh – Abdulla mutlaq al musailim st.,, Kuwait",
    "phones": [
      "+965 24332320"
    ],
    "fax": null,
    "emails": []
  },
  {
    "id": "7faaec3d-e813-414e-ae7e-1ded20053391",
    "city": "Hawally",
    "type": "Paint store",
    "coordinates": {
      "lat": "29.3354229",
      "lng": "48.027808999999934"
    },
    "location": "Al Awael Shop",
    "address": "Hawally – block 7 – 296 st.,, Kuwait",
    "phones": [
      "+965 22611464"
    ],
    "fax": null,
    "emails": []
  },
  {
    "id": "0e4f62a6-8a10-4ec5-8f81-7ccbf458c0b9",
    "city": "Shuwaikh",
    "type": "Paint store",
    "coordinates": null,
    "location": "Al Eamar Gulf Shop",
    "address": "Shuwaikh industrial 2 khalifah al jassim st., Kuwait",
    "phones": [
      "+965 66177895"
    ],
    "fax": null,
    "emails": []
  },
  {
    "id": "f31e97d8-e559-4624-8a2c-1f12e5f2945b",
    "city": "Hawally",
    "type": "Paint store",
    "coordinates": {
      "lat": "29.341278",
      "lng": " 48.014083"
    },
    "location": "Alwan Jamila Shop",
    "address": "Hawally block 3- al othman st. opposite al Othman museum   ,, Kuwait",
    "phones": [
      "+965 50315117"
    ],
    "fax": null,
    "emails": []
  },
  {
    "id": "de5ca585-497a-4992-8845-55aacc93ebb5",
    "city": "Khaitan",
    "type": "Paint store",
    "coordinates": {
      "lat": "29.2833846",
      "lng": "47.98035930000003"
    },
    "location": "Alwan Yabroud Shop",
    "address": "Khaitan – khaitan club st., Kuwait",
    "phones": [
      "+965 90936455"
    ],
    "fax": null,
    "emails": []
  },
  {
    "id": "1477cad2-172a-4f02-8a3e-80f41844ecd3",
    "city": "Shuwaikh",
    "type": "Showroom",
    "coordinates": {
      "lat": "29.319111",
      "lng": " 47.932028"
    },
    "location": "Hempel Paints Kuwait",
    "address": "Shuwaikh 3rd Industrial Area, Block B, Street 30, Plot 119, Kuwait",
    "phones": [
      "+965 22020700"
    ],
    "fax": null,
    "emails": []
  },
  {
    "id": "2e271c88-1ee4-45ee-8ab2-c2e535ecf2fa",
    "city": "Hawally",
    "type": "Paint store",
    "coordinates": {
      "lat": "29.3335651",
      "lng": "48.029065400000036"
    },
    "location": "Khair al Jazirah Shop",
    "address": "Hawally – block 7- Ahmed bin toloun st.,, Kuwait",
    "phones": [
      "+965 99009932"
    ],
    "fax": null,
    "emails": []
  },
  {
    "id": "1dc872b2-c907-4f3a-ac62-458b6689c9bd",
    "city": "Jaleeb",
    "type": "Paint store",
    "coordinates": {
      "lat": "29.2597759",
      "lng": "47.93624639999996"
    },
    "location": "Modern Center",
    "address": "Jaleeb al shuyoukh – Khaled uqab al ashhab st . opposite police station,, Kuwait",
    "phones": [
      "+965 97871726"
    ],
    "fax": null,
    "emails": []
  },
  {
    "id": "e5aaa7d2-8adf-48cb-b7c1-a7f50f615359",
    "city": "Shiwaikh",
    "type": "Paint store",
    "coordinates": {
      "lat": "29.3157358",
      "lng": "47.9647463"
    },
    "location": "Shalahi Shop 3",
    "address": "Shiwaikh industrial 2 – st. 23,, Kuwait",
    "phones": [
      "+965 24826566"
    ],
    "fax": null,
    "emails": []
  },
  {
    "id": "db11cb34-4fa6-4152-8470-5e78a04b1bac",
    "city": "Jahra",
    "type": "Paint store",
    "coordinates": {
      "lat": "29.313500",
      "lng": " 47.658333"
    },
    "location": "Shalahi Shop 4",
    "address": "Jahra block 1 – building 6,, Kuwait",
    "phones": [
      "+965 24554810"
    ],
    "fax": null,
    "emails": []
  },
  {
    "id": "c4898150-a0f4-4ad1-a078-a84cc2b077e1",
    "city": "Shuwaikh",
    "type": "Paint store",
    "coordinates": {
      "lat": "29.3233253",
      "lng": "47.946432200000004"
    },
    "location": "Shalahi Shop 5",
    "address": "Shuwaikh industrial 2 – st. 19,, Kuwait",
    "phones": [
      "+965 97676513"
    ],
    "fax": null,
    "emails": []
  },
  {
    "id": "3b1855bf-f904-4196-9eb9-e9f2ef789abf",
    "city": "Shuwaikh",
    "type": "Paint store",
    "coordinates": null,
    "location": "Shalahi Shop 1",
    "address": "Shuwaikh industrial 2 – khalifah al jassim st.,, Kuwait",
    "phones": [
      "+965 24816032"
    ],
    "fax": null,
    "emails": []
  },
  {
    "id": "bad300b3-3dd5-4876-84b6-5fbf1f8c5ff5",
    "city": "Jaleeb",
    "type": "Paint store",
    "coordinates": null,
    "location": "Shalahi Shop 2",
    "address": "Jaleeb al shuyoukh – abbassiya – st. 58, Kuwait",
    "phones": [
      "+965 69675436"
    ],
    "fax": null,
    "emails": []
  },
  {
    "id": "366809de-53cd-4acd-8706-88c34a14c441",
    "city": "Al-Qurin",
    "type": "Paint store",
    "coordinates": {
      "lat": "29.200927",
      "lng": "48.07388049999997"
    },
    "location": "Tobaz Al Khalijia Shop",
    "address": "Al Qurain block 1 st. 14 building 376 shop No. 4,, Kuwait",
    "phones": [
      "+965 98535521 "
    ],
    "fax": null,
    "emails": []
  },
  {
    "id": "7bc8d3f9-48c0-4e71-90b0-9b01a8f68b98",
    "city": "Al Kharj",
    "type": "Showroom",
    "coordinates": {
      "lat": "24.14833",
      "lng": "47.305"
    },
    "location": "Abdulatif Ahmad Al Hamad",
    "address": "Al Kharj,, Riyadh Province,, Saudi Arabia",
    "phones": [
      "01 5440536"
    ],
    "fax": null,
    "emails": []
  },
  {
    "id": "f2cb5bb0-bf71-4620-a5ca-35cbda64adda",
    "city": "Riyadh",
    "type": "Showroom",
    "coordinates": null,
    "location": "Abdulaziz Al-Nemer",
    "address": null,
    "phones": [
      "01 4212495"
    ],
    "fax": null,
    "emails": []
  },
  {
    "id": "1f18d25f-758a-4f50-9ab5-a8fc83c94d1b",
    "city": "Riyadh",
    "type": "Showroom",
    "coordinates": {
      "lat": "24.619285",
      "lng": "46.685022"
    },
    "location": "Abdulaziz Al Nemer",
    "address": "Al Badi'ah, Riyadh,, Riyadh Province,, Saudi Arabia",
    "phones": [
      "01 4265676"
    ],
    "fax": null,
    "emails": []
  },
  {
    "id": "21f57128-75ee-4682-88ac-04213c5e8e3b",
    "city": "Az Zulfi",
    "type": "Showroom",
    "coordinates": {
      "lat": "24.668109",
      "lng": "46.754753"
    },
    "location": "Abdulrhman Al Saleh Sons Co. Ltd.",
    "address": "Az Zulfi, Riyadh,, Riyadh Province,, Saudi Arabia",
    "phones": [
      "06 4221419"
    ],
    "fax": null,
    "emails": []
  },
  {
    "id": "cdae39a1-9c81-4c89-b728-701e2a334efd",
    "city": "Riyadh",
    "type": "Showroom",
    "coordinates": {
      "lat": "24.694573",
      "lng": "46.762359"
    },
    "location": "Abu Hamam Contracting",
    "address": "Ar Rabwah, Riyadh,, Riyadh Province,, Saudi Arabia",
    "phones": [
      "01 4939018"
    ],
    "fax": null,
    "emails": []
  },
  {
    "id": "84ded2a4-8423-4860-8854-3b5a28e6ac81",
    "city": "Arar",
    "type": "Showroom",
    "coordinates": {
      "lat": "24.596948",
      "lng": "46.678066"
    },
    "location": "Al Hamdi Trading Est.",
    "address": "Arar,, Riyadh,, Saudi Arabia",
    "phones": [
      "04 6623216"
    ],
    "fax": null,
    "emails": []
  },
  {
    "id": "13344fdf-98b8-41c2-8e21-49d0a68f5793",
    "city": "Hawtah Bani Tamim",
    "type": "Showroom",
    "coordinates": {
      "lat": "24.706467",
      "lng": "46.673619"
    },
    "location": "Al Hussien Trdg.",
    "address": "Hawtah Bani Tamim, Riyadh,, Riyadh Province,, Saudi Arabia",
    "phones": [
      "01 5552328"
    ],
    "fax": null,
    "emails": []
  },
  {
    "id": "e249186c-0e3c-4dfd-b58b-17ed7eb3af4d",
    "city": "An Nasim",
    "type": "Showroom",
    "coordinates": {
      "lat": "24.71",
      "lng": "46.82"
    },
    "location": "Al Saff Al Awal Est.",
    "address": "An Nasim,, Riyadh,, Saudi Arabia",
    "phones": [
      "01 2306090"
    ],
    "fax": null,
    "emails": []
  },
  {
    "id": "a4a2f447-9447-49d8-8fc6-85debc17733a",
    "city": "Riyadh",
    "type": "Showroom",
    "coordinates": {
      "lat": "24.802086",
      "lng": "46.636746"
    },
    "location": "Al Shahbaa Paint",
    "address": "As Sahafah, Riyadh,, Riyadh Province,, Saudi Arabia",
    "phones": [
      "01 4852755"
    ],
    "fax": null,
    "emails": []
  },
  {
    "id": "c5a34b41-ac6e-4624-99ca-a0d113c27844",
    "city": "Afif",
    "type": "Showroom",
    "coordinates": {
      "lat": "24.807841",
      "lng": "46.748076"
    },
    "location": "Al Thamar Trading",
    "address": "Afif, Riyadh,, Riyadh Province,, Saudi Arabia",
    "phones": [
      "01 7240674"
    ],
    "fax": null,
    "emails": []
  },
  {
    "id": "594d33a3-038c-460e-b5a7-f56ceefd28cd",
    "city": "Riyadh",
    "type": "Showroom",
    "coordinates": {
      "lat": "24.764313",
      "lng": "46.761801"
    },
    "location": "Dorar Al Thimar",
    "address": "Khalid Ibn Al Waleed,, Riyadh Province,, Saudi Arabia",
    "phones": [
      "01 2483153"
    ],
    "fax": null,
    "emails": []
  },
  {
    "id": "a8ea9af4-083a-40e2-ad29-1b75f1a0cd38",
    "city": "Riyadh",
    "type": "Showroom",
    "coordinates": {
      "lat": "24.777051",
      "lng": "46.823039"
    },
    "location": "Dorar Al Thimar",
    "address": "Prince Bandar Bin Abdulaziz, Riyadh,, Riyadh Province,, Saudi Arabia",
    "phones": [
      "01 2267838"
    ],
    "fax": null,
    "emails": []
  },
  {
    "id": "8e11b2e6-c688-4e41-afd1-115d10815ab9",
    "city": "Riyadh",
    "type": "Showroom",
    "coordinates": {
      "lat": "24.71073",
      "lng": "46.662447"
    },
    "location": "Hempel Showroom",
    "address": "Takhassusi Street, Riyadh,, Riyadh Province,, Saudi Arabia",
    "phones": [
      "01 4829399"
    ],
    "fax": null,
    "emails": []
  },
  {
    "id": "c7f255b2-4f87-48c0-b5bd-9add8d2bc437",
    "city": "Riyadh",
    "type": "Showroom",
    "coordinates": {
      "lat": "24.738492",
      "lng": "46.647104"
    },
    "location": "Hempel Showroom",
    "address": "At Takhassusi Street, Al Mohammadiyah, Riyadh,, Riyadh Province,, Saudi Arabia",
    "phones": [
      "01 2076078"
    ],
    "fax": null,
    "emails": []
  },
  {
    "id": "e75aae64-8c41-49cf-be07-b3af8adf7d28",
    "city": "Qassim",
    "type": "Showroom",
    "coordinates": {
      "lat": "25.86834",
      "lng": "43.51289"
    },
    "location": "Ibrahim Al Muzeni",
    "address": "Al-Ras,, Qassim,, Saudi Arabia",
    "phones": [
      "06 3335404 "
    ],
    "fax": null,
    "emails": []
  },
  {
    "id": "97b964d7-4ba2-4918-ab23-a11aeeffa30c",
    "city": "Qassim",
    "type": "Showroom",
    "coordinates": {
      "lat": "26.333333",
      "lng": "43.966667"
    },
    "location": "Ibrahim Al Muzeni",
    "address": "Buraydah,, Qassim,, Saudi Arabia",
    "phones": [
      "06 3247591"
    ],
    "fax": null,
    "emails": []
  },
  {
    "id": "75bed1ad-d3ce-4331-83ca-0f8e074ae314",
    "city": "Qassim",
    "type": "Showroom",
    "coordinates": {
      "lat": "26.38985",
      "lng": "43.93891"
    },
    "location": "Ibrahim Al Muzeni",
    "address": "Al Iskan, Buraydah,, Qassim,, Saudi Arabia",
    "phones": [
      "06 3855476"
    ],
    "fax": null,
    "emails": []
  },
  {
    "id": "eba03a2f-8754-4de3-8771-e75b55a66590",
    "city": "Qassim",
    "type": "Showroom",
    "coordinates": {
      "lat": "26.084761",
      "lng": "43.994301"
    },
    "location": "Ibrahim Al Muzeni",
    "address": "Unaizah,, Qassim,, Saudi Arabia",
    "phones": [
      "06 3641975"
    ],
    "fax": null,
    "emails": []
  },
  {
    "id": "42600256-569f-4787-a69d-d41b8036547b",
    "city": "Qassim",
    "type": "Showroom",
    "coordinates": {
      "lat": "26.053327",
      "lng": "43.541467"
    },
    "location": "Ibrahim Al Muzeni",
    "address": "Riyadh AlKhbra,, Qassim,, Saudi Arabia",
    "phones": [
      "06 3340941"
    ],
    "fax": null,
    "emails": []
  },
  {
    "id": "5b4e604e-41ab-4970-a959-0c818d8aee76",
    "city": "Qassim",
    "type": "Showroom",
    "coordinates": {
      "lat": "26.126419",
      "lng": "43.69088"
    },
    "location": "Ibrahim Al Muzeni",
    "address": "Al Bukayriyah,, Qassim,, Saudi Arabia",
    "phones": [
      "06 3351911"
    ],
    "fax": null,
    "emails": []
  },
  {
    "id": "3f4881a3-638b-4870-901b-56e7bea75457",
    "city": "Qassim",
    "type": "Showroom",
    "coordinates": null,
    "location": "Ibrahim Al-Muzeni",
    "address": null,
    "phones": [
      "06 3323722"
    ],
    "fax": null,
    "emails": []
  },
  {
    "id": "b9e0fb27-3416-40d9-aa3c-12926164a075",
    "city": "Riyadh",
    "type": "Showroom",
    "coordinates": {
      "lat": "24.657198",
      "lng": "46.735224"
    },
    "location": "Jazeerat Al Barkah",
    "address": "Dhahran Street, Riyadh,, Riyadh Province,, Saudi Arabia",
    "phones": [
      "01 4773130"
    ],
    "fax": null,
    "emails": []
  },
  {
    "id": "46df199f-118a-4ad4-8154-847a32643571",
    "city": null,
    "type": "Showroom",
    "coordinates": null,
    "location": "Khalid For Contracting",
    "address": null,
    "phones": [
      "06 4450200"
    ],
    "fax": null,
    "emails": []
  },
  {
    "id": "ffdf10df-9543-4be5-8d09-4ce6414c2170",
    "city": "Al Jouf",
    "type": "Showroom",
    "coordinates": {
      "lat": "30.5",
      "lng": "38.216667"
    },
    "location": "Khalid Owaid Al Sharari",
    "address": "Tabarjal,, Al Jouf,, Saudi Arabia",
    "phones": [
      "04 6286278"
    ],
    "fax": null,
    "emails": []
  },
  {
    "id": "45bf9a26-ac16-4a03-a511-b0fc38699a5a",
    "city": "Al Qurayat",
    "type": "Showroom",
    "coordinates": {
      "lat": "24.809395",
      "lng": "46.682517"
    },
    "location": "Khalid Suliman Al Roilan",
    "address": "Al Qurayat,, Riyadh,, Saudi Arabia",
    "phones": [
      "04 6423416"
    ],
    "fax": null,
    "emails": []
  },
  {
    "id": "53d4dba0-5822-4803-81b0-9d5bdbef1508",
    "city": "Riyadh",
    "type": "Showroom",
    "coordinates": null,
    "location": "Laktat for Trading",
    "address": null,
    "phones": [
      "01 4962870"
    ],
    "fax": null,
    "emails": []
  },
  {
    "id": "29f1323a-77a0-4bfc-9be9-e0f6de303c68",
    "city": "Riyadh",
    "type": "Showroom",
    "coordinates": {
      "lat": "24.504444",
      "lng": "44.393889"
    },
    "location": "Mafelh Marzouk Al Maqatee",
    "address": "Dawadmi,, Riyadh Province,, Saudi Arabia",
    "phones": [
      "01 6420420"
    ],
    "fax": null,
    "emails": []
  },
  {
    "id": "ec73a73a-39ef-4105-8a09-566540bfa064",
    "city": "Hail",
    "type": "Showroom",
    "coordinates": {
      "lat": "27.516667",
      "lng": "41.683333"
    },
    "location": "Naser Saleh Al Hamad",
    "address": "Ha'il,, Hail Province,, Saudi Arabia",
    "phones": [
      "06 5314322"
    ],
    "fax": null,
    "emails": []
  },
  {
    "id": "2890b035-2fca-42ae-a6d5-f3550bd92ff9",
    "city": "Rafha",
    "type": "Showroom",
    "coordinates": {
      "lat": "24.738333",
      "lng": "46.710962"
    },
    "location": "Nayf Al Tamyat",
    "address": "Rafha, Riyadh,, Riyadh Province,, Saudi Arabia",
    "phones": [
      "04 6761336"
    ],
    "fax": null,
    "emails": []
  },
  {
    "id": "15b2cb33-53a0-45d9-ad8e-edaa799d6fc5",
    "city": "Riyadh",
    "type": "Showroom",
    "coordinates": {
      "lat": "24.788938",
      "lng": "46.754499"
    },
    "location": "Qaser Al Ibtikar",
    "address": "Granada, Riyadh,, Riyadh Province,, Saudi Arabia",
    "phones": [
      "01 2485321"
    ],
    "fax": null,
    "emails": []
  },
  {
    "id": "6786371f-b59f-4676-9bbf-9c4202d59dde",
    "city": "Riyadh",
    "type": "Showroom",
    "coordinates": {
      "lat": "24.53556",
      "lng": "46.679463"
    },
    "location": "Rainbow Paint",
    "address": "Al Aflaj, Riyadh,, Riyadh Province,, Saudi Arabia",
    "phones": [
      "01 6823789"
    ],
    "fax": null,
    "emails": []
  },
  {
    "id": "d0923288-1a54-4693-91cf-4e12a44164b5",
    "city": "Al Jouf",
    "type": "Showroom",
    "coordinates": {
      "lat": "29.970869",
      "lng": "40.205009"
    },
    "location": "Rawa'a Al Andlus",
    "address": "Sakaka,, Al Jouf,, Saudi Arabia",
    "phones": [
      "04 6254544"
    ],
    "fax": null,
    "emails": []
  },
  {
    "id": "4e575ad7-4904-4c4f-a7cb-2244c75ba63a",
    "city": "Al Jouf",
    "type": "Showroom",
    "coordinates": {
      "lat": "29.818202",
      "lng": "39.868198"
    },
    "location": "Rawa'a Al Andlus",
    "address": "Dumat Al-Jandal,, Al Jouf,, Saudi Arabia",
    "phones": [
      "04 6230440"
    ],
    "fax": null,
    "emails": []
  },
  {
    "id": "d7a49dab-b2c5-47ea-a2f1-40c5b0748f15",
    "city": "Riyadh",
    "type": "Showroom",
    "coordinates": {
      "lat": "24.769898",
      "lng": "46.668361000000004"
    },
    "location": "Hempel Showroom",
    "address": "Building No. 6371, King Abdulaziz Road (Exit 5), After Thumama Road intersection, (Besides CAREFOUR Supermarket), Riyadh, K.S.A, ",
    "phones": [
      "0550749712"
    ],
    "fax": null,
    "emails": []
  },
  {
    "id": "84dafcb7-9ad7-4627-8c5f-91584f539ce5",
    "city": "Al Kharj",
    "type": "Showroom",
    "coordinates": {
      "lat": "24.14833",
      "lng": "47.305"
    },
    "location": "Suhail Al Janoub",
    "address": "Al Kharj,, Riyadh Province,, Saudi Arabia",
    "phones": [
      "01 5448002"
    ],
    "fax": null,
    "emails": []
  },
  {
    "id": "112ad086-cf84-4357-8bd8-660e8173aa43",
    "city": "Saihat",
    "type": "Showroom",
    "coordinates": {
      "lat": "26.475",
      "lng": "50.041667"
    },
    "location": "Adel M. S. Est.",
    "address": "Saihat,, Eastern Province,, Saudi Arabia",
    "phones": [
      "03 8506038"
    ],
    "fax": null,
    "emails": []
  },
  {
    "id": "0cddf5ea-ffca-41ad-a2b6-22f719a5ecfc",
    "city": "Qatif",
    "type": "Showroom",
    "coordinates": {
      "lat": "26.55905",
      "lng": "49.995689"
    },
    "location": "Al Dahan",
    "address": "Qatif,, Eastern Province,, Saudi Arabia",
    "phones": [
      "03 8554221"
    ],
    "fax": null,
    "emails": []
  },
  {
    "id": "1ff16ac9-0e2a-4d44-8285-e75501410b33",
    "city": "Dammam",
    "type": "Showroom",
    "coordinates": {
      "lat": "26.422651",
      "lng": "50.013504"
    },
    "location": "Al Fares Est.",
    "address": "42nd, Dammam,, Eastern Province,, Saudi Arabia",
    "phones": [
      "03 8425995"
    ],
    "fax": null,
    "emails": []
  },
  {
    "id": "00f6b43a-e2b4-4495-95d6-f34f8b9f41bf",
    "city": "Dammam",
    "type": "Showroom",
    "coordinates": {
      "lat": "26.403183",
      "lng": "50.023899"
    },
    "location": "Al Fares Est.",
    "address": "91, Dammam,, Eastern Province,, Saudi Arabia",
    "phones": [
      "03 8227614"
    ],
    "fax": null,
    "emails": []
  },
  {
    "id": "e3b38cdc-9d2e-48aa-b933-81f6e9cfe5b3",
    "city": "Dammam",
    "type": "Showroom",
    "coordinates": {
      "lat": "26.397214",
      "lng": "50.064982"
    },
    "location": "Al Fares Est.",
    "address": "Al Faisaliyah, Dammam,, Eastern Province,, Saudi Arabia",
    "phones": [
      "03 8112215"
    ],
    "fax": null,
    "emails": []
  },
  {
    "id": "24a70685-6637-4439-9409-0e206f43c921",
    "city": "Nairyah",
    "type": "Showroom",
    "coordinates": null,
    "location": "Al Ghunaim Est.",
    "address": "Nairyah,, Eastern Province,, Saudi Arabia",
    "phones": [
      "03 3732035"
    ],
    "fax": null,
    "emails": []
  },
  {
    "id": "65bb2672-fb1b-449b-a026-dac863da7449",
    "city": "Al Khobar",
    "type": "Showroom",
    "coordinates": {
      "lat": "26.298738",
      "lng": "50.190973"
    },
    "location": "Al Rahmani Est.",
    "address": "Aqrabiyah, Al Khobar,, Eastern Province,, Saudi Arabia",
    "phones": [
      "03 8983381"
    ],
    "fax": null,
    "emails": []
  },
  {
    "id": "e71075e0-7fdf-40bd-b083-c7bde3741d06",
    "city": "Al Khobar",
    "type": "Showroom",
    "coordinates": {
      "lat": "26.290871",
      "lng": "50.215712"
    },
    "location": "Al Suhaimi Co.",
    "address": "7 Prince Mohammed St, Al Khobar,, Eastern Province,, Saudi Arabia",
    "phones": [
      "03 8672533"
    ],
    "fax": null,
    "emails": []
  },
  {
    "id": "6f3e5d47-639b-407f-80be-3a4e610455a0",
    "city": "Jubail",
    "type": "Showroom",
    "coordinates": {
      "lat": "27.012563",
      "lng": "49.658128"
    },
    "location": "Al Suhaimi Co.",
    "address": "Jubail,, Eastern Province,, Saudi Arabia",
    "phones": [
      "03 3618265"
    ],
    "fax": null,
    "emails": []
  },
  {
    "id": "73eec9ec-745b-496b-b4a2-c20c1074e566",
    "city": "Al Ahsa",
    "type": "Showroom",
    "coordinates": {
      "lat": "25.383333",
      "lng": "49.583333"
    },
    "location": "Al Suhaimi Co.",
    "address": "Hofuf, Al Ahsa,, Eastern Province,, Saudi Arabia",
    "phones": [
      "03 5869373"
    ],
    "fax": null,
    "emails": []
  },
  {
    "id": "edbdb98c-0100-46b8-a817-6dffb6592dfe",
    "city": "Abqaiq",
    "type": "Showroom",
    "coordinates": {
      "lat": "25.933333",
      "lng": "49.666667"
    },
    "location": "Al Suhaimi Co.",
    "address": "Abqaiq,, Eastern Province,, Saudi Arabia",
    "phones": [
      "03 5663256"
    ],
    "fax": null,
    "emails": []
  },
  {
    "id": "2c1a0212-4b2e-449f-956f-23582c2d5ec7",
    "city": "Al Ahsa",
    "type": "Showroom",
    "coordinates": null,
    "location": "Al Suhaimi Co.",
    "address": null,
    "phones": [
      "03 5304569"
    ],
    "fax": null,
    "emails": []
  },
  {
    "id": "0b1f42c4-b442-4e8a-b831-de880d74a44e",
    "city": "Dammam",
    "type": "Showroom",
    "coordinates": {
      "lat": "26.433157",
      "lng": "50.117986"
    },
    "location": "Al Suhaimi Co.",
    "address": "1st Street, Dammam,, Eastern Province,, Saudi Arabia",
    "phones": [
      "03 8343669"
    ],
    "fax": null,
    "emails": []
  },
  {
    "id": "1289a636-ca48-4a97-86fb-9b67c0e2f432",
    "city": "Hafar Al Batin",
    "type": "Showroom",
    "coordinates": {
      "lat": "28.434151",
      "lng": "45.9753"
    },
    "location": "Awhaj Est.",
    "address": "Hafar Al Batin,, Eastern Province,, Saudi Arabia",
    "phones": [
      "03 7237666"
    ],
    "fax": null,
    "emails": []
  },
  {
    "id": "4fb3e207-b7a5-49a0-aae7-9592de47387f",
    "city": "Al Ahsa",
    "type": "Showroom",
    "coordinates": null,
    "location": "Deco Palace",
    "address": null,
    "phones": [
      "03 5351113"
    ],
    "fax": null,
    "emails": []
  },
  {
    "id": "5ec9cc40-fb20-4573-8d43-38876b4b3d70",
    "city": "Al Ahsa",
    "type": "Showroom",
    "coordinates": {
      "lat": "25.437912",
      "lng": "49.558554"
    },
    "location": "Mabany Hajer",
    "address": "Al-Mubarraz, Al Ahsa,, Eastern Province,, Saudi Arabia",
    "phones": [
      "03 5888856"
    ],
    "fax": null,
    "emails": []
  },
  {
    "id": "22518b12-902d-461b-b851-ff845b03ef99",
    "city": "Khafji",
    "type": "Showroom",
    "coordinates": {
      "lat": "28.416667",
      "lng": "48.5"
    },
    "location": "Mursie",
    "address": "Khafji,, Eastern Province,, Saudi Arabia",
    "phones": [
      "03 7662092"
    ],
    "fax": null,
    "emails": []
  },
  {
    "id": "d26cb8a4-cd00-43ec-a4c9-4d57a1708135",
    "city": "Dammam",
    "type": "Showroom",
    "coordinates": null,
    "location": "Paint Decore Est.",
    "address": null,
    "phones": [
      "03 8301783"
    ],
    "fax": null,
    "emails": []
  },
  {
    "id": "cffb58d2-924d-4129-9bb8-adade52f0fd6",
    "city": "Dammam",
    "type": "Showroom",
    "coordinates": null,
    "location": "Paint Decore Est.",
    "address": null,
    "phones": [
      "03 8153213"
    ],
    "fax": null,
    "emails": []
  },
  {
    "id": "74739522-7438-467b-9503-caa43370802d",
    "city": "Dammam",
    "type": "Showroom",
    "coordinates": {
      "lat": "26.392667",
      "lng": "49.977714"
    },
    "location": "Paint Systems",
    "address": "Emara Dammam,, Eastern Province,, Saudi Arabia",
    "phones": [
      "03 8336502"
    ],
    "fax": null,
    "emails": []
  },
  {
    "id": "a7a95374-e86b-40dd-819c-88df6f497ee9",
    "city": "Al Khobar",
    "type": "Showroom",
    "coordinates": {
      "lat": "26.274099",
      "lng": "50.190973"
    },
    "location": "Raja Al Otaibi Est.",
    "address": "Thuqba, Al Khobar,, Eastern Province,, Saudi Arabia",
    "phones": [
      "03 8952148"
    ],
    "fax": null,
    "emails": []
  },
  {
    "id": "0addb7ff-2662-4bf3-abe5-96013c2e845c",
    "city": "Ras Tanura",
    "type": "Showroom",
    "coordinates": {
      "lat": "26.701864",
      "lng": "50.049573"
    },
    "location": "Raja Al Otaibi Est.",
    "address": "Ras Tanura,, Eastern Province,, Saudi Arabia",
    "phones": [
      "03 3667404"
    ],
    "fax": null,
    "emails": []
  },
  {
    "id": "cf125500-7452-4b0b-be6a-992da51e03da",
    "city": null,
    "type": "Showroom",
    "coordinates": null,
    "location": "Randa Trading",
    "address": null,
    "phones": [
      "03 8915515"
    ],
    "fax": null,
    "emails": []
  },
  {
    "id": "a076bad6-c0d0-4f4f-86c4-11998c9b086b",
    "city": "Jeddah ",
    "type": "Showroom",
    "coordinates": {
      "lat": "21.569210",
      "lng": "39.169523"
    },
    "location": "Abdullah Omar Bamarouf Est. 1",
    "address": null,
    "phones": [
      "+966 554597789",
      "+966 12 6394144"
    ],
    "fax": "+966 12 6394144",
    "emails": []
  },
  {
    "id": "32b44990-509b-4cda-a5ca-6b6426e1a04c",
    "city": "Jeddah",
    "type": "Showroom",
    "coordinates": {
      "lat": "21.611190",
      "lng": "39.143235"
    },
    "location": "Abdullah Omar Bamarouf Est. 2",
    "address": null,
    "phones": [
      "+966 504388506",
      "+966 12 6390199"
    ],
    "fax": "+966 12 6921627",
    "emails": []
  },
  {
    "id": "29454b7c-07cb-45c4-8719-a615b47ec6ee",
    "city": "Besha",
    "type": "Showroom",
    "coordinates": {
      "lat": "19.998917",
      "lng": "42.596923"
    },
    "location": "Al Badwi est for trading ",
    "address": null,
    "phones": [
      "+966 505657185",
      "+966 17 6226091"
    ],
    "fax": "+966 17 6224178",
    "emails": []
  },
  {
    "id": "c13e15d3-0475-4f79-b570-1f13af6b28ce",
    "city": "Jeddah",
    "type": "Showroom",
    "coordinates": {
      "lat": "21.544427",
      "lng": "39.2245"
    },
    "location": "Ali Hussain Hammami Est.",
    "address": "Sharurah,, Jeddah,, Saudi Arabia",
    "phones": [
      "07 5322555"
    ],
    "fax": null,
    "emails": []
  },
  {
    "id": "75516e02-4c64-4a92-8f47-6fd88313cec0",
    "city": "Mekhwah",
    "type": "Showroom",
    "coordinates": null,
    "location": "Al Marwah Est.",
    "address": null,
    "phones": [
      "07 7280484"
    ],
    "fax": null,
    "emails": []
  },
  {
    "id": "c40a2e82-092a-43a0-8144-2e3c0634e3f0",
    "city": "Jeddah",
    "type": "Showroom",
    "coordinates": {
      "lat": "21.615011",
      "lng": "39.129871"
    },
    "location": "Al Najrani Est.",
    "address": "40 As Safa,, Jeddah,, Saudi Arabia",
    "phones": [
      "02 6938567"
    ],
    "fax": null,
    "emails": []
  },
  {
    "id": "b1b4557b-b302-465b-91af-aac40d90c09e",
    "city": "Jeddah",
    "type": "Showroom",
    "coordinates": {
      "lat": "21.47099",
      "lng": "39.259981"
    },
    "location": "Al Najrani Est.",
    "address": "Bin Laden St,, Jeddah,, Saudi Arabia",
    "phones": [
      "02 6877841"
    ],
    "fax": null,
    "emails": []
  },
  {
    "id": "6f37d98e-d896-4b7a-8efe-3ccf9e2e2edd",
    "city": "Jeddah",
    "type": "Showroom",
    "coordinates": {
      "lat": "21.53077",
      "lng": "39.208698"
    },
    "location": "Al Najrani Est.",
    "address": "Prince Majid, Bani Malik, Jeddah,, Makkah Province,, Saudi Arabia",
    "phones": [
      "02 6754286"
    ],
    "fax": null,
    "emails": []
  },
  {
    "id": "fcb357cd-d140-4005-9dc3-aefea926a0c3",
    "city": "Makkah",
    "type": "Showroom",
    "coordinates": {
      "lat": "21.439563",
      "lng": "39.815873"
    },
    "location": "Al Ta Ahud Est.",
    "address": "Al Hujun, Makkah,, Makkah Province,, Saudi Arabia",
    "phones": [
      "02 5495235"
    ],
    "fax": null,
    "emails": []
  },
  {
    "id": "39b0a465-25b6-459a-9101-32167cb1cd7c",
    "city": "Jeddah",
    "type": "Showroom",
    "coordinates": null,
    "location": "Andalus Est.",
    "address": null,
    "phones": [
      "02 6513236"
    ],
    "fax": null,
    "emails": []
  },
  {
    "id": "1ba6dd83-6a95-471b-961a-3c91a0d97906",
    "city": "Madinah",
    "type": "Showroom",
    "coordinates": null,
    "location": "Audah Rafei Al-Faydi Est.",
    "address": null,
    "phones": [
      "04 8381815"
    ],
    "fax": null,
    "emails": []
  },
  {
    "id": "75baf997-a148-473f-b011-974a3b9ecf67",
    "city": "Madinah",
    "type": "Showroom",
    "coordinates": null,
    "location": "Audah Rafei Al-Faydi Est",
    "address": null,
    "phones": [
      "04 8370020"
    ],
    "fax": null,
    "emails": []
  },
  {
    "id": "42b2fff4-d094-4e07-a348-a1e99ca900d8",
    "city": "Jeddah",
    "type": "Showroom",
    "coordinates": {
      "lat": "21.684746",
      "lng": "39.115338"
    },
    "location": "Baeshen For Building Material",
    "address": "Al Basateen, Jeddah,, Makkah Province,, Saudi Arabia",
    "phones": [
      "02 2368727"
    ],
    "fax": null,
    "emails": []
  },
  {
    "id": "56000664-ccc5-422c-b8a6-cb231abba90b",
    "city": "Jeddah",
    "type": "Showroom",
    "coordinates": {
      "lat": "21.461046",
      "lng": "39.230116"
    },
    "location": "Ba Haddad Est.",
    "address": "Al Iskan, Jeddah,, Makkah Province,, Saudi Arabia",
    "phones": [
      "02 6362296"
    ],
    "fax": null,
    "emails": []
  },
  {
    "id": "91626a92-3ce8-458a-8661-b68d9cb0d81e",
    "city": "Jeddah",
    "type": "Showroom",
    "coordinates": null,
    "location": "Bin Doman Est.",
    "address": null,
    "phones": [
      "02 6204061"
    ],
    "fax": null,
    "emails": []
  },
  {
    "id": "5f776513-cc3f-451a-85b4-993a56f8065e",
    "city": "Jeddah",
    "type": "Showroom",
    "coordinates": {
      "lat": "21.478949",
      "lng": "39.194984"
    },
    "location": "Hempel Showroom",
    "address": "60 Street, King Fahad Road,, Jeddah,, Saudi Arabia",
    "phones": [
      "02 2574567"
    ],
    "fax": null,
    "emails": []
  },
  {
    "id": "78cae641-3708-48b5-8c82-3769299bb80d",
    "city": "Makkah",
    "type": "Showroom",
    "coordinates": {
      "lat": "21.562242",
      "lng": "39.156501"
    },
    "location": "Hempel Showroom",
    "address": "Shawqi, Jeddah,, Makkah,, Saudi Arabia",
    "phones": [
      "0500 064508"
    ],
    "fax": null,
    "emails": []
  },
  {
    "id": "4d6f1e8d-1ce7-43ce-96af-85b80413e75e",
    "city": "Asir",
    "type": "Showroom",
    "coordinates": {
      "lat": "19.120225",
      "lng": "42.177025"
    },
    "location": "Ibn Hussein Al Shehry Est.",
    "address": "An Namas,, Asir,, Saudi Arabia",
    "phones": [
      "07 2821819"
    ],
    "fax": null,
    "emails": []
  },
  {
    "id": "3d4f52b6-497a-446b-bd9a-760d20448f28",
    "city": "Gizan",
    "type": "Showroom",
    "coordinates": {
      "lat": "16.89192",
      "lng": "42.549751"
    },
    "location": "Khalil Abo Hasebo Est.",
    "address": "Gizan,, Saudi Arabia",
    "phones": [
      "07 3222078"
    ],
    "fax": null,
    "emails": []
  },
  {
    "id": "3d94f88e-54e6-469c-8199-4af447428f8a",
    "city": "Tabuk",
    "type": "Showroom",
    "coordinates": {
      "lat": "28.390409",
      "lng": "36.5732"
    },
    "location": "Khalil Abu Hasebo Est.",
    "address": "Tabuk,, Tabuk Province,, Saudi Arabia",
    "phones": [
      "04 4240072"
    ],
    "fax": null,
    "emails": []
  },
  {
    "id": "7ea12e3d-e2ba-44ff-90f8-451d7559c0bf",
    "city": "Jeddah",
    "type": "Showroom",
    "coordinates": {
      "lat": "21.580641",
      "lng": "39.162583"
    },
    "location": "Mohd A Al-Waleedi A. S.",
    "address": "Sari St, Jeddah,, Makkah Province,, Saudi Arabia",
    "phones": [
      "02 6979906"
    ],
    "fax": null,
    "emails": []
  },
  {
    "id": "f8f1aea3-60a4-4887-b22d-6941faccf11f",
    "city": "Jeddah",
    "type": "Showroom",
    "coordinates": {
      "lat": "21.478949",
      "lng": "39.194984"
    },
    "location": "Sahar Khaled Bashumailah Est.",
    "address": "60 Street, King Fahad Road,, Jeddah,, Saudi Arabia",
    "phones": [
      "02 6581991"
    ],
    "fax": null,
    "emails": []
  },
  {
    "id": "93b08756-af7d-4e9a-b6c0-6c404a142b8a",
    "city": "Jeddah",
    "type": "Showroom",
    "coordinates": {
      "lat": "21.73",
      "lng": "39.19"
    },
    "location": "Sahar Khaled Bashumailah Est.",
    "address": "Hayy al Hamdaniyah, Jeddah,, Makkah Province,, Saudi Arabia",
    "phones": [
      "02 6581991"
    ],
    "fax": null,
    "emails": []
  },
  {
    "id": "a93ce87e-93db-40eb-ab89-998759f68183",
    "city": "Taif",
    "type": "Showroom",
    "coordinates": {
      "lat": "21.275871",
      "lng": "40.417576"
    },
    "location": "Taef Almaseef Est.",
    "address": "Jeddah, Taif,, Makkah Province,, Saudi Arabia",
    "phones": [
      "02 7320172"
    ],
    "fax": null,
    "emails": []
  },
  {
    "id": "d0a67781-571e-47c2-83ff-69752a0f65cb",
    "city": "Jeddah",
    "type": "Showroom",
    "coordinates": {
      "lat": "21.497629",
      "lng": "39.17475"
    },
    "location": "Turki Saeed Mushait Est.",
    "address": "Khamis Mushayt, Jeddah,, Makkah Province,, Saudi Arabia",
    "phones": [
      "07 2221960"
    ],
    "fax": null,
    "emails": []
  },
  {
    "id": "8f7f8502-474d-44a2-aa6d-b2cc5d58777f",
    "city": "Jizan",
    "type": "Showroom",
    "coordinates": {
      "lat": "17.148992",
      "lng": "42.625923"
    },
    "location": "Yehya Al Jaafari",
    "address": "Şabyā,, Jizan,, Saudi Arabia",
    "phones": [
      "07 3274959"
    ],
    "fax": null,
    "emails": []
  }
]
